[
  {
    "name":"Lord of the Streets",
    "type":"food",
    "street_address":"3401 Fannin",
    "hours":"",
    "bus":"",
    "phone":"(713) 526-0311",
    "website":"",
    "location":{
      "latitude":"29.739505",
      "longitude":"-95.377032"
    }
  },
  {
    "name":"Legacy Community Health Service",
    "type":"medical",
    "street_address":"215 Westheimer Rd",
    "hours":"",
    "bus":"",
    "phone":"(832) 548-5100",
    "website":"</br><a href=\"http://www.legacycommunityhealth.org/\" target=\"_blank\">LegacyCommunityHealth.org/</a>",
    "location":{
      "latitude":"29.744395",
      "longitude":"-95.383531"
    }
  },
  {
    "name":"Covenant House",
    "type":"youth",
    "street_address":"1111 Lovett Blvd",
    "hours":"</br><b>Hours: </b>24/7"</br>,
    "bus":"METRO BUS 42, 81, 82, 36",
    "phone":"(713) 523-2231",
    "website":"</br><a href=\"www.covenanthousetx.org/\" target=\"_blank\">www.covenanthousetx.org/</a>",
    "location":{
      "latitude":"29.743111",
      "longitude":"-95.392995"
    }
  },
  {
    "name":"Interfaith Ministries for Greater Houston",
    "type":"food",
    "street_address":"3303 Main Street",
    "hours":"",
    "bus":"",
    "phone":"(713) 533-4900",
    "website":"</br><a href=\"https://www.imgh.org/\" target=\"_blank\">imgh.org/</a>",
    "location":{
      "latitude":"29.740659",
      "longitude":"-95.377733"
    }
  },
  {
    "name":"Magnificat Clubhouse",
    "type":"mentally disabled services",
    "street_address":"3307 Austin",
    "hours":"",
    "bus":"",
    "phone":"(713) 520-0461",
    "website":"",
    "location":{
      "latitude":"29.738470",
      "longitude":"-95.374092"
    }
  },
  {
    "name":"Catholic Charities",
    "type":"food",
    "street_address":"2900 Louisiana Street",
    "hours":"",
    "bus":"",
    "phone":"(866) 649-5862",
    "website":"",
    "location":{
      "latitude":"29.744967",
      "longitude":"-95.378951"
    }
  },
  {
    "name":"SEARCH",
    "type":"housing",
    "street_address":"2505 Fanin",
    "hours":"</br><b>Hours: </b>Mon-Fri 8-4pm</br>",
    "bus":"",
    "phone":"(713) 739-7752",
    "website":"</br><a href=\"www.searchhomeless.org\" target=\"_blank\">www.searchhomeless.org</a>",
    "location":{
      "latitude":"29.745127",
      "longitude":"-95.372643"
    }
  },
  {
    "name":"Career and Recovery Resources",
    "type":"income",
    "street_address":"2525 San Jacinto",
    "hours":"",
    "bus":"",
    "phone":"(713) 754-7000",
    "website":"",
    "location":{
      "latitude":"29.744451",
      "longitude":"-95.371937"
    }
  },
  {
    "name":"Bristow Center",
    "type":"medical", 
    "street_address":"2627 Caroline",
    "hours":"",
    "bus":"",
    "phone":"(713) 970-7413",
    "website":"",
    "location":{
      "latitude":"29.742930",
      "longitude":"-95.372052"
    }
  },
  {
    "name":"Houston Area Women's Center",
    "type":"womens",
    "street_address":"1010 Waugh Dr",
    "hours":"",
    "bus":"",
    "phone":"(713) 528-2121",
    "website":"</br><a href=\"http://www.hawc.org/\" target=\"_blank\">http://www.hawc.org/</a>",
    "location":{
      "latitude":"29.756935",
      "longitude":"-95.398591"
    }
  },
  {
    "name":"Salvation Army Women and Family",
    "type":"womens",
    "street_address":"1603 McGowen",
    "hours":"</br><b>Hours: </b>Mon-Fri 8-4:30pm</br>",
    "bus":"METRO BUS 52",
    "phone":"(713) 650-6530",
    "website":"</br><a href=\"www.salvationarmyhouston.org/familyresidence\" target=\"_blank\">www.salvationarmyhouston.org/familyresidence</a>",
    "location":{
      "latitude":"29.742321",
      "longitude":"-95.368302"
    }
  },
  {
    "name":"Salvation Army Social Services",
    "type":"social services",
    "street_address":"2208 Main Street",
    "hours":"",
    "bus":"",
    "phone":"",
    "website":"",
    "location":{
      "latitude":"29.747766",
      "longitude":"-95.372492"
    }
  },
  {
    "name":"Salvation Army Harbor Light",
    "type":"shelter",
    "street_address":"2407 Main Street",
    "hours":"</br><b>Hours: </b>Mon-Fri 8-4:30pm</br>",
    "bus":"METRO RAIL",
    "phone":"713.224.2875",
    "website":"</br><a href=\"www.salvationarmyhouston.org/harborlight\" target=\"_blank\">www.salvationarmyhouston.org/harborlight</a>",
    "location":{
      "latitude":"29.746325",
      "longitude":"-95.373244"
    }
  },
  {
    "name":"Metro Ride Store",
    "type":"transportation",
    "street_address":"1900 Main Street",
    "hours":"",
    "bus":"",
    "phone":"(713) 739-6968",
    "website":"</br><a href=\"http://www.ridemetro.org/Services/RideStores_LostFound.aspx\" target=\"_blank\">RideMetro.org/Services/RideStores_LostFound.aspx</a>",
    "location":{
      "latitude":"29.750124",
      "longitude":"-95.370987"
    }
  },
  
  {
    "name":"Temenos",
    "type":"housing",
    "street_address":"2019 Crawford Street, Ste. 216",
    "hours":"",
    "bus":"",
    "phone":"(713) 860-4036",
    "website":"</br><a href=\"http://www.temenoscdc.org/\" target=\"_blank\">http://TemenosCDC.org/</a>",
    "location":{
      "latitude":"29.745605",
      "longitude":"-95.365662"
    }
  },

  {
    "name":"Bread of Life",
    "type":"all",
    "street_address":"1703 Gray Street",
    "hours":"",
    "bus":"",
    "phone":"(713) 650-0596",
    "website":"",
    "location":{
      "latitude":"29.745172",
      "longitude":"-95.365034"
    }
  },
  {
    "name":"Houston Public Library",
    "type":"tech",
    "street_address":"500 McKinney",
    "hours":"",
    "bus":"",
    "phone":"(832) 393-1313",
    "website":"</br><a href=\"http://www.houstonlibrary.org/home\" target=\"_blank\">HoustonLibrary.org/home</a>",
    "location":{
      "latitude":"29.759201",
      "longitude":"-95.370158"
    }
  },
  {
    "name":"Houston Area Urban League",
    "type":"housing",
    "street_address":"1301 Texas Ave",
    "hours":"",
    "bus":"",
    "phone":"(713) 718-3199",
    "website":"</br><a href=\"http://www.haul.org\" target=\"_blank\">Haul.org</a>",
    "location":{
      "latitude":"29.758567",
      "longitude":"-95.359540"
    }
  },
  {
    "name":"The Beacon",
    "type":"all",
    "street_address":"1212 Prairie Street",
    "hours":"</br><b>Hours: </b>Thur-Mon 7-3pm</br>",
    "bus":"METRO BUS 37,48, 11, 20, 30, 52, 77, 80; METRO RAIL",
    "phone":"(713) 220-9737",
    "website":"</br><a href=\"http://www.chomhouston.org/default.aspx?name=chom.thebeacon\" target=\"_blank\">http://www.chomhouston.org/default.aspx?name=chom.thebeacon</a>",
    "location":{
      "latitude":"29.759643",
      "longitude":"-95.360076"
    }
  },
  {
    "name":"US Vets at the DeGeorge",
    "type":"income",
    "street_address":"1418 Preston Street",
    "hours":"</br><b>Hours: </b>Mon 8-2:30pm</br>Tue-Fri 8-5pm</br>Sat 8-4pm</br>Sun 9-4pm</br>",
    "bus":"METRO BUS 37, 48, 11, 20, 30, 52, 77, 80; METRO RAIL",
    "phone":"(713) 229-8122",
    "website":"", 
    "location":{
      "latitude":"29.758912",
      "longitude":"-95.357414"
    }
  },
  {
    "name":"US Vets Initiative",
    "type":"income",
    "street_address":"1418 Preston Street",
    "hours":"</br><b>Hours: </b>24/7</br>",
    "bus":"",
    "phone":"(713) 204-1838",
    "website":"</br><a href=\"http://www.usvetsinc.org/houston\" target=\"_blank\">http://www.usvetsinc.org/houston</a>",
    "location":{
      "latitude":"29.758912",
      "longitude":"-95.357414"
    }
  },
  
  {
    "name":"New Hope Housing",
    "type":"housing",
    "street_address":"1414 Congress",
    "hours":"",
    "bus":"",
    "phone":"(713) 224-1414",
    "website":"</br><a href=\"http://www.newhopehousing.com/about.html\" target=\"_blank\">NewHopeHousing.com/about.html</a>",
    "location":{
      "latitude":"29.759787",
      "longitude":"-95.356969"
    }
  },
  {
    "name":"Star of Hope Mission (Men)",
    "type":"shelter",
    "street_address":"1811 Ruiz Street",
    "hours":"</br><b>Hours: </b>Mon-Sat 8-11am, 1-3pm; Sun 9-12pm, 1-3pm</br>",
    "bus":"METRO BUS 3, 6, 11",
    "phone":"(713) 227-8900",
    "website":"</br><a href=\"http://www.sohmission.org/NetCommunity/services-for-men\" target=\"_blank\">SOHMission.org/NetCommunity/services-for-men</a>",
    "location":{
      "latitude":"29.760523",
      "longitude":"-95.351434"
    }
  },
  {
    "name":"Loaves & Fishes",
    "type":"food",
    "street_address":"2009 Congress Street",
    "hours":"",
    "bus":"",
    "phone":"(713) 224-1373",
    "website":"</br><a href=\"http://www.mhihouston.org/LoavesAndFishes/index.html\" target=\"_blank\">MHIHouston.org/LoavesAndFishes/index.html</a>",
    "location":{
      "latitude":"29.757096",
      "longitude":"-95.351794"
    }
  },
  {
    "name":"Sally's House",
    "type":"womens",
    "street_address":"1717 Congress",
    "hours":"",
    "bus":"",
    "phone":"(713) 223-8889",
    "website":"</br><a href=\"http://www.salvationarmyhouston.org/sallyshouse\" target=\"_blank\">SalvationArmyHouston.org/SallysHouse</a>",
    "location":{
      "latitude":"29.758411",
      "longitude":"-95.353866"
    }
  },
  {
    "name":"San Jose Clinic",
    "type":"medical",
    "street_address":"301 Hamilton Street",
    "hours":"",
    "bus":"",
    "phone":"(713) 228-9411",
    "website":"",
    "location":{
      "latitude":"29.757102",
      "longitude":"-95.353044"
    }
  },
  
  {
    "name":"Star of Hope (Women and families)",
    "type":"shelter",
    "street_address":"419 Dowling",
    "hours":"</br><b>Hours: </b>Intake 8:30-2:30pm</br>",
    "bus":"METRO BUS 50",
    "phone":"(713) 222-2220",
    "website":"</br><a href=\"http://www.sohmission.org/NetCommunity/wf-intake\" target=\"_blank\">http://www.sohmission.org/NetCommunity/wf-intake</a>",
    "location":{
      "latitude":"29.753592",
      "longitude":"-95.349013"
    }
  },
  
  {
    "name":"Martha's Kitchen",
    "type":"food",
    "street_address":"322 S. Jensen",
    "hours":"",
    "bus":"",
    "phone":"(713) 224-2522",
    "website":"</br><a href=\"http://www.stmartha.com/index.cfm?load=page&page=218\" target=\"_blank\">http://www.stmartha.com/index.cfm?load=page&page=218</a>",
    "location":{
      "latitude":"29.760559",
      "longitude":"-95.343991"
    }
  }
  

]